"city","city_ascii","lat","lng","country","iso2","iso3","admin_name","capital","population","id"
Amnat Charoen,Amnat Charoen,15.8585,104.6288,Thailand,TH,THA,Amnat Charoen,admin,,1764038016
Chiang Rai,Chiang Rai,19.9119,99.8265,Thailand,TH,THA,Chiang Rai,admin,117127,1764748544
Bangkok,Bangkok,13.75,100.5166,Thailand,TH,THA,Krung Thep Maha Nakhon,primary,6704000,1764068608
Samut Prakan,Samut Prakan,13.6069,100.6115,Thailand,TH,THA,Samut Prakan,admin,388920,1764159232
Rayong,Rayong,12.6718,101.2815,Thailand,TH,THA,Rayong,admin,37035,1764920064
Chon Buri,Chon Buri,13.4004,101,Thailand,TH,THA,Chon Buri,admin,226618,1764202112
Si Racha,Si Racha,13.159,100.9287,Thailand,TH,THA,Chon Buri,minor,178916,1764003328
Phitsanulok,Phitsanulok,16.8283,100.2729,Thailand,TH,THA,Phitsanulok,admin,164017,1764140928
Yala,Yala,6.5505,101.2851,Thailand,TH,THA,Yala,admin,148140,1764430336
Phayao,Phayao,19.1707,99.9083,Thailand,TH,THA,Phayao,admin,21058,1764291072
Phatthalung,Phatthalung,7.615,100.081,Thailand,TH,THA,Phatthalung,admin,43522,1764240896
Nong Khai,Nong Khai,17.8733,102.7479,Thailand,TH,THA,Nong Khai,admin,104505,1764279168
Sukhothai,Sukhothai,17.0119,99.7515,Thailand,TH,THA,Sukhothai,admin,10276,1764175744
Sing Buri,Sing Buri,14.887,100.401,Thailand,TH,THA,Sing Buri,admin,20046,1764482048
Satun,Satun,6.6167,100.0667,Thailand,TH,THA,Satun,admin,34544,1764835968
Ranong,Ranong,9.962,98.638,Thailand,TH,THA,Ranong,admin,24561,1764623744
Prachin Buri,Prachin Buri,14.0572,101.3768,Thailand,TH,THA,Prachin Buri,admin,79757,1764262528
Sa Kaeo,Sa Kaeo,13.8141,102.0722,Thailand,TH,THA,Sa Kaeo,admin,,1764207104
Roi Et,Roi Et,16.051,103.655,Thailand,TH,THA,Roi Et,admin,39328,1764216704
Phuket,Phuket,7.8765,98.3815,Thailand,TH,THA,Phuket,admin,141618,1764327808
Phrae,Phrae,18.1533,100.1629,Thailand,TH,THA,Phrae,admin,38538,1764209536
Phichit,Phichit,16.439,100.349,Thailand,TH,THA,Phichit,admin,35760,1764024192
Phetchabun,Phetchabun,16.419,101.159,Thailand,TH,THA,Phetchabun,admin,50656,1764518272
Chaiyaphum,Chaiyaphum,15.804,102.0386,Thailand,TH,THA,Chaiyaphum,admin,58350,1764784768
Chanthaburi,Chanthaburi,12.6133,102.0979,Thailand,TH,THA,Chanthaburi,admin,99819,1764151680
Chainat,Chainat,15.179,100.126,Thailand,TH,THA,Chai Nat,admin,15469,1764848768
Chachoengsao,Chachoengsao,13.679,101.076,Thailand,TH,THA,Chachoengsao,admin,49741,1764632320
Ang Thong,Ang Thong,14.5833,100.45,Thailand,TH,THA,Ang Thong,admin,13738,1764529920
Surat Thani,Surat Thani,9.1501,99.3401,Thailand,TH,THA,Surat Thani,admin,157627,1764338176
Ayutthaya,Ayutthaya,14.3588,100.5684,Thailand,TH,THA,Phra Nakhon Si Ayutthaya,admin,145615,1764002304
Phangnga,Phangnga,8.451,98.534,Thailand,TH,THA,Phangnga,admin,9676,1764855936
Lampang,Lampang,18.2916,99.4813,Thailand,TH,THA,Lampang,admin,204081,1764081792
Kalasin,Kalasin,16.428,103.509,Thailand,TH,THA,Kalasin,admin,55102,1764060928
Nakhon Sawan,Nakhon Sawan,15.7,100.07,Thailand,TH,THA,Nakhon Sawan,admin,111915,1764821120
Nakhon Phanom,Nakhon Phanom,17.3945,104.7695,Thailand,TH,THA,Nakhon Phanom,admin,55377,1764103552
Maha Sarakham,Maha Sarakham,16.184,103.298,Thailand,TH,THA,Maha Sarakham,admin,51584,1764568960
Lop Buri,Lop Buri,14.804,100.6186,Thailand,TH,THA,Lop Buri,admin,57761,1764574720
Loei,Loei,17.4919,101.7315,Thailand,TH,THA,Loei,admin,35273,1764996864
Uthai Thani,Uthai Thani,15.3819,100.0264,Thailand,TH,THA,Uthai Thani,admin,22219,1764844800
Trang,Trang,7.5634,99.608,Thailand,TH,THA,Trang,admin,147820,1764343808
Phetchaburi,Phetchaburi,13.1133,99.9412,Thailand,TH,THA,Phetchaburi,admin,90497,1764000512
Yasothon,Yasothon,15.788,104.151,Thailand,TH,THA,Yasothon,admin,21643,1764520576
Surin,Surin,14.8868,103.4915,Thailand,TH,THA,Surin,admin,62536,1764813184
Uttaradit,Uttaradit,17.6316,100.0972,Thailand,TH,THA,Uttaradit,admin,76630,1764146304
Mae Hong Son,Mae Hong Son,19.301,97.969,Thailand,TH,THA,Mae Hong Son,admin,9109,1764090880
Samut Songkhram,Samut Songkhram,13.413,100.001,Thailand,TH,THA,Samut Songkhram,admin,35065,1764305024
Aranyaprathet,Aranyaprathet,13.6824,102.4969,Thailand,TH,THA,Sa Kaeo,minor,22472,1764167296
Tak,Tak,16.8847,99.1293,Thailand,TH,THA,Tak,admin,33146,1764055296
Chiang Mai,Chiang Mai,18.8,98.98,Thailand,TH,THA,Chiang Mai,admin,397211,1764662912
Narathiwat,Narathiwat,6.4318,101.8214,Thailand,TH,THA,Narathiwat,admin,68112,1764748544
Songkhla,Songkhla,7.21,100.56,Thailand,TH,THA,Songkhla,admin,48616,1764543616
Hat Yai,Hat Yai,6.9964,100.4714,Thailand,TH,THA,Songkhla,minor,317954,1764161024
Ubon Ratchathani,Ubon Ratchathani,15.25,104.83,Thailand,TH,THA,Ubon Ratchathani,admin,273893,1764611072
Trat,Trat,12.237,102.509,Thailand,TH,THA,Trat,admin,21590,1764126848
Kanchanaburi,Kanchanaburi,14.0174,99.522,Thailand,TH,THA,Kanchanaburi,admin,63699,1764455552
Bua Yai,Bua Yai,15.584,102.4186,Thailand,TH,THA,Nakhon Ratchasima,minor,18269,1764992896
Sakhon Nakhon,Sakhon Nakhon,17.1679,104.1479,Thailand,TH,THA,Sakon Nakhon,admin,76237,1764476416
Lamphun,Lamphun,18.503,99.074,Thailand,TH,THA,Lamphun,admin,14030,1764104320
Nakhon Pathom,Nakhon Pathom,13.818,100.064,Thailand,TH,THA,Nakhon Pathom,admin,117927,1764252032
Ratchaburi,Ratchaburi,13.5419,99.8215,Thailand,TH,THA,Ratchaburi,admin,106996,1764773376
Udon Thani,Udon Thani,17.4048,102.7893,Thailand,TH,THA,Udon Thani,admin,247231,1764676096
Samut Sakhon,Samut Sakhon,13.536,100.274,Thailand,TH,THA,Samut Sakhon,admin,63498,1764502016
Sisaket,Sisaket,15.1203,104.3298,Thailand,TH,THA,Sisaket,admin,44751,1764002816
Supham Buri,Supham Buri,14.471,100.129,Thailand,TH,THA,Suphan Buri,admin,53399,1764759552
Nakhon Ratchasima,Nakhon Ratchasima,15,102.1,Thailand,TH,THA,Nakhon Ratchasima,admin,334984,1764752256
Nonthaburi,Nonthaburi,13.8337,100.4833,Thailand,TH,THA,Nonthaburi,admin,258550,1764667904
Mae Sot,Mae Sot,16.7162,98.5708,Thailand,TH,THA,Tak,minor,45781,1764198528
Khon Kaen,Khon Kaen,16.42,102.83,Thailand,TH,THA,Khon Kaen,admin,251056,1764003456
Mukdahan,Mukdahan,16.5453,104.7235,Thailand,TH,THA,Mukdahan,admin,,1764994560
Nong Bua Lamphu,Nong Bua Lamphu,17.2041,102.4407,Thailand,TH,THA,Nong Bua Lamphu,admin,,1764333312
Thung Song,Thung Song,8.154,99.7286,Thailand,TH,THA,Nakhon Si Thammarat,minor,28223,1764423040
Nakhon Si Thammarat,Nakhon Si Thammarat,8.4,99.97,Thailand,TH,THA,Nakhon Si Thammarat,admin,232335,1764409088
Krabi,Krabi,8.052,98.912,Thailand,TH,THA,Krabi,admin,31219,1764587904
Pathum Thani,Pathum Thani,14.0171,100.5333,Thailand,TH,THA,Pathum Thani,admin,154412,1764434304
Nakhon Nayok,Nakhon Nayok,14.2,101.216,Thailand,TH,THA,Nakhon Nayok,admin,21309,1764068224
Prachuap Khiri Khan,Prachuap Khiri Khan,11.803,99.8,Thailand,TH,THA,Prachuap Khiri Khan,admin,33521,1764877824
Nan,Nan,18.7868,100.7715,Thailand,TH,THA,Nan,admin,82483,1764061184
Bueng Kan,Bueng Kan,18.363,103.6519,Thailand,TH,THA,Bueng Kan,admin,,1764944000
Hua Hin,Hua Hin,12.5697,99.9443,Thailand,TH,THA,Prachuap Khiri Khan,minor,50456,1764352384
Kamphaeng Phet,Kamphaeng Phet,16.473,99.529,Thailand,TH,THA,Kamphaeng Phet,admin,58787,1764367744
Chumphon,Chumphon,10.5127,99.1872,Thailand,TH,THA,Chumphon,admin,85686,1764012928
Pattani,Pattani,6.864,101.25,Thailand,TH,THA,Pattani,admin,150000,1764277888
Buriram,Buriram,15.0004,103.1166,Thailand,TH,THA,Buriram,admin,47292,1764141056
Saraburi,Saraburi,14.5304,100.88,Thailand,TH,THA,Sara Buri,admin,70769,1764111232
Kavaratti,Kavaratti,10.5626,72.6369,India,IN,IND,Lakshadweep,admin,10688,1356089856
New Delhi,New Delhi,28.6,77.2,India,IN,IND,Delhi,primary,317797,1356215168
Tezpur,Tezpur,26.6338,92.8,India,IN,IND,Assam,,58851,1356299392
Jullundur,Jullundur,31.3349,75.569,India,IN,IND,Punjab,,855000,1356494848
Navsari,Navsari,20.8504,72.92,India,IN,IND,Gujarāt,,163000,1356120576
Asansol,Asansol,23.6833,86.9833,India,IN,IND,West Bengal,,1328000,1356093696
Port Blair,Port Blair,11.667,92.736,India,IN,IND,Andaman and Nicobar Islands,admin,127562,1356161664
Kota,Kota,25.18,75.835,India,IN,IND,Rājasthān,,827000,1356820352
Saharanpur,Saharanpur,29.97,77.55,India,IN,IND,Uttar Pradesh,,484873,1356139904
Bhuj,Bhuj,23.2504,69.81,India,IN,IND,Gujarāt,,289429,1356806400
Gurgaon,Gurgaon,28.45,77.02,India,IN,IND,Haryāna,,197340,1356836096
Simla,Simla,31.1,77.1666,India,IN,IND,Himāchal Pradesh,admin,173503,1356962944
Muzaffarpur,Muzaffarpur,26.1204,85.3799,India,IN,IND,Bihār,,333200,1356897408
Gaya,Gaya,24.8,85,India,IN,IND,Bihār,,423692,1356045696
Ratlam,Ratlam,23.3504,75.03,India,IN,IND,Madhya Pradesh,,307229,1356241664
Gwalior,Gwalior,26.23,78.1801,India,IN,IND,Madhya Pradesh,,978000,1356363904
Baramula,Baramula,34.2004,74.35,India,IN,IND,Jammu and Kashmīr,,167986,1356671232
Guwahati,Guwahati,26.16,91.77,India,IN,IND,Assam,,983000,1356593792
Dispur,Dispur,26.144,91.7666,India,IN,IND,Assam,admin,16140,1356960128
Bidar,Bidar,17.9229,77.5175,India,IN,IND,Karnātaka,,300136,1356933504
Pune,Pune,18.53,73.85,India,IN,IND,Mahārāshtra,,4672000,1356081024
Ahmedabad,Ahmedabad,23.0301,72.58,India,IN,IND,Gujarāt,minor,5375000,1356304384
Haldia,Haldia,22.0257,88.0583,India,IN,IND,West Bengal,,200762,1356491136
Bhagalpur,Bhagalpur,25.23,86.98,India,IN,IND,Bihār,,361548,1356760960
Ujjain,Ujjain,23.1904,75.79,India,IN,IND,Madhya Pradesh,,513350,1356050688
Tonk,Tonk,26.1505,75.79,India,IN,IND,Rājasthān,,181734,1356991360
Agartala,Agartala,23.8354,91.28,India,IN,IND,Tripura,admin,203264,1356148992
Silchar,Silchar,24.7904,92.79,India,IN,IND,Assam,,152393,1356102528
Vellore,Vellore,12.9204,79.15,India,IN,IND,Tamil Nādu ,,177081,1356977664
Bharatpur,Bharatpur,27.2504,77.5,India,IN,IND,Rājasthān,,229384,1356168320
Siliguri,Siliguri,26.7204,88.455,India,IN,IND,West Bengal,,515574,1356724736
Gangtok,Gangtok,27.3333,88.6166,India,IN,IND,Sikkim,admin,77900,1356689536
Cuttack,Cuttack,20.47,85.8899,India,IN,IND,Odisha,,580000,1356872064
Alipur Duar,Alipur Duar,26.4837,89.5667,India,IN,IND,West Bengal,,127342,1356472064
Bhubaneshwar,Bhubaneshwar,20.2704,85.8274,India,IN,IND,Odisha,admin,844000,1356140160
Dibrugarh,Dibrugarh,27.4833,94.9,India,IN,IND,Assam,,166366,1356100224
Jorhat,Jorhat,26.75,94.2167,India,IN,IND,Assam,,69033,1356638720
Hospet,Hospet,15.2804,76.375,India,IN,IND,Karnātaka,,286007,1356241408
Tuticorin,Tuticorin,8.82,78.13,India,IN,IND,Tamil Nādu ,,436094,1356750976
Sangli,Sangli,16.8604,74.575,India,IN,IND,Mahārāshtra,,601214,1356921344
Sholapur,Sholapur,17.6704,75.9,India,IN,IND,Mahārāshtra,,1057000,1356314368
Mumbai,Mumbai,19.017,72.857,India,IN,IND,Mahārāshtra,admin,18978000,1356226688
Diu,Diu,20.7197,70.9904,India,IN,IND,Damān and Diu,,23779,1356923520
Sirsa,Sirsa,29.4904,75.03,India,IN,IND,Haryāna,,181639,1356966784
Mangalore,Mangalore,12.9,74.85,India,IN,IND,Karnātaka,,776632,1356972288
Thiruvananthapuram,Thiruvananthapuram,8.5,76.95,India,IN,IND,Kerala,admin,954000,1356024320
Kochi,Kochi,10.015,76.2239,India,IN,IND,Kerala,,1519000,1356707840
Bangalore,Bangalore,12.97,77.56,India,IN,IND,Karnātaka,admin,6787000,1356410368
Proddatur,Proddatur,14.7504,78.57,India,IN,IND,Andhra Pradesh,,197451,1356025856
Tirupati,Tirupati,13.6504,79.42,India,IN,IND,Andhra Pradesh,,287035,1356363008
Vadodara,Vadodara,22.31,73.18,India,IN,IND,Gujarāt,,1756000,1356705280
Surat,Surat,21.2,72.84,India,IN,IND,Gujarāt,,3842000,1356758784
Aizawl,Aizawl,23.7104,92.72,India,IN,IND,Mizoram,admin,283021,1356342784
Bhopal,Bhopal,23.25,77.41,India,IN,IND,Madhya Pradesh,admin,1727000,1356734080
Hyderabad,Hyderabad,17.4,78.48,India,IN,IND,Andhra Pradesh,admin,6376000,1356871808
Chandigarh,Chandigarh,30.72,76.78,India,IN,IND,Chandīgarh,admin,979000,1356739200
Gandhinagar,Gandhinagar,23.3004,72.6399,India,IN,IND,Gujarāt,admin,195891,1356140928
Imphal,Imphal,24.8,93.95,India,IN,IND,Manipur,admin,264986,1356107136
Kohima,Kohima,25.667,94.1166,India,IN,IND,Nāgāland,admin,92113,1356332160
Lucknow,Lucknow,26.855,80.915,India,IN,IND,Uttar Pradesh,admin,2695000,1356891776
Bijapur,Bijapur,16.8354,75.71,India,IN,IND,Karnātaka,,271064,1356499200
Chennai,Chennai,13.09,80.28,India,IN,IND,Tamil Nādu ,admin,7163000,1356374912
Guntur,Guntur,16.33,80.45,India,IN,IND,Andhra Pradesh,,530577,1356374912
Rajahmundry,Rajahmundry,17.0303,81.79,India,IN,IND,Andhra Pradesh,,304804,1356831744
Haora,Haora,22.5804,88.3299,India,IN,IND,West Bengal,,4841638,1356986496
Raurkela,Raurkela,22.2304,84.83,India,IN,IND,Odisha,,625831,1356096768
Dhanbad,Dhanbad,23.8004,86.42,India,IN,IND,Jharkhand,,1246000,1356103424
Bhatpara,Bhatpara,22.8504,88.52,India,IN,IND,West Bengal,,483129,1356022400
Kolkata,Kolkata,22.495,88.3247,India,IN,IND,West Bengal,admin,14787000,1356060544
Shillong,Shillong,25.5705,91.88,India,IN,IND,Meghālaya,admin,375527,1356533888
Puri,Puri,19.8204,85.9,India,IN,IND,Odisha,,201026,1356558464
Krishnanagar,Krishnanagar,23.3803,88.53,India,IN,IND,West Bengal,,145926,1356128640
Jamshedpur,Jamshedpur,22.7875,86.1975,India,IN,IND,Jharkhand,,1300000,1356501248
Jodhpur,Jodhpur,26.2918,73.0168,India,IN,IND,Rājasthān,,995000,1356727040
Sikar,Sikar,27.6104,75.14,India,IN,IND,Rājasthān,,400000,1356163712
Barddhaman,Barddhaman,23.2504,87.865,India,IN,IND,West Bengal,,301725,1356062208
Medinipur,Medinipur,22.3304,87.15,India,IN,IND,West Bengal,,169127,1356432896
Vishakhapatnam,Vishakhapatnam,17.73,83.305,India,IN,IND,Andhra Pradesh,,1529000,1356692608
Silvassa,Silvassa,20.2666,73.0166,India,IN,IND,Dādra and Nagar Haveli,admin,27359,1356217856
Kolhapur,Kolhapur,16.7,74.22,India,IN,IND,Mahārāshtra,,750000,1356110592
Latur,Latur,18.4004,76.57,India,IN,IND,Mahārāshtra,,374394,1356918272
Pondicherry,Pondicherry,11.935,79.83,India,IN,IND,Puducherry,admin,227411,1356368896
Brahmapur,Brahmapur,19.32,84.8,India,IN,IND,Odisha,,324726,1356569344
Bhiwandi,Bhiwandi,19.35,73.13,India,IN,IND,Mahārāshtra,,795000,1356763520
Rajkot,Rajkot,22.31,70.8,India,IN,IND,Gujarāt,,1260000,1356317184
Kalyan,Kalyan,19.2502,73.1602,India,IN,IND,Mahārāshtra,,1576614,1356172288
Coimbatore,Coimbatore,11,76.95,India,IN,IND,Tamil Nādu ,,1696000,1356999552
Nasik,Nasik,20.0004,73.78,India,IN,IND,Mahārāshtra,,1473000,1356562560
Porbandar,Porbandar,21.67,69.67,India,IN,IND,Gujarāt,,234684,1356634496
Parbhani,Parbhani,19.2704,76.76,India,IN,IND,Mahārāshtra,,378326,1356632832
Akola,Akola,20.71,77.01,India,IN,IND,Mahārāshtra,,503502,1356089472
Ahmednagar,Ahmednagar,19.1104,74.75,India,IN,IND,Mahārāshtra,,391760,1356972672
Aurangabad,Aurangabad,19.8957,75.3203,India,IN,IND,Mahārāshtra,,1113000,1356840704
Daman,Daman,20.417,72.85,India,IN,IND,Damān and Diu,admin,39737,1356008064
Ranchi,Ranchi,23.37,85.33,India,IN,IND,Jharkhand,admin,1044000,1356110592
Itanagar,Itanagar,27.1004,93.6166,India,IN,IND,Arunāchal Pradesh,admin,44971,1356023808
Raipur,Raipur,21.235,81.635,India,IN,IND,Chhattīsgarh,admin,875000,1356375040
Kozhikode,Kozhikode,11.2504,75.77,India,IN,IND,Kerala,minor,953000,1356010368
Machilipatnam,Machilipatnam,16.2004,81.18,India,IN,IND,Andhra Pradesh,,192827,1356067840
Khammam,Khammam,17.2804,80.1601,India,IN,IND,Andhra Pradesh,,290839,1356007168
Kakinada,Kakinada,16.9675,82.2375,India,IN,IND,Andhra Pradesh,,292923,1356573568
Panaji,Panaji,15.492,73.818,India,IN,IND,Goa,admin,65586,1356909184
Bhavnagar,Bhavnagar,21.7784,72.13,India,IN,IND,Gujarāt,,554978,1356982400
Karnal,Karnal,29.6804,76.97,India,IN,IND,Haryāna,,225049,1356145152
Rohtak,Rohtak,28.9,76.58,India,IN,IND,Haryāna,,317245,1356162944
Hisar,Hisar,29.17,75.725,India,IN,IND,Haryāna,,544829,1356004736
Abohar,Abohar,30.1204,74.29,India,IN,IND,Punjab,,130603,1356846848
Agra,Agra,27.1704,78.015,India,IN,IND,Uttar Pradesh,,1592000,1356187392
Alwar,Alwar,27.5454,76.6049,India,IN,IND,Rājasthān,,283228,1356570880
Bhilwara,Bhilwara,25.3504,74.635,India,IN,IND,Rājasthān,,389911,1356077824
Udaipur,Udaipur,24.6,73.73,India,IN,IND,Rājasthān,,469737,1356266112
Meerut,Meerut,29.0004,77.7,India,IN,IND,Uttar Pradesh,,1398000,1356390528
Delhi,Delhi,28.67,77.23,India,IN,IND,Delhi,admin,15926000,1356872576
Rampur,Rampur,28.8154,79.025,India,IN,IND,Uttar Pradesh,,296418,1356666624
Ludhiana,Ludhiana,30.9278,75.8723,India,IN,IND,Punjab,,1649000,1356929536
Sonipat,Sonipat,29,77.02,India,IN,IND,Haryāna,,250521,1356648832
Dehra Dun,Dehra Dun,30.3204,78.05,India,IN,IND,Uttarakhand,admin,714223,1356970368
Ghaziabad,Ghaziabad,28.6604,77.4084,India,IN,IND,Uttar Pradesh,,1341000,1356691840
Faridabad,Faridabad,28.4333,77.3167,India,IN,IND,Haryāna,,1394000,1356013184
Amravati,Amravati,20.95,77.77,India,IN,IND,Mahārāshtra,,734451,1356462080
Bhiwani,Bhiwani,28.81,76.125,India,IN,IND,Haryāna,,190855,1356780032
Gulbarga,Gulbarga,17.35,76.82,India,IN,IND,Karnātaka,,483615,1356091136
Mathura,Mathura,27.5,77.67,India,IN,IND,Uttar Pradesh,,330511,1356066048
Hapur,Hapur,28.7437,77.7628,India,IN,IND,Uttar Pradesh,,242920,1356819968
Bhilai,Bhilai,21.2167,81.4333,India,IN,IND,Chhattīsgarh,,1097000,1356071040
Warangal,Warangal,18.01,79.58,India,IN,IND,Andhra Pradesh,,1203853,1356851584
Raichur,Raichur,16.2104,77.355,India,IN,IND,Karnātaka,,255240,1356217344
Firozabad,Firozabad,27.15,78.3949,India,IN,IND,Uttar Pradesh,,306409,1356032000
Burhanpur,Burhanpur,21.3004,76.13,India,IN,IND,Madhya Pradesh,,197233,1356857472
Ambala,Ambala,30.32,76.82,India,IN,IND,Haryāna,,146787,1356947200
Varanasi,Varanasi,25.33,83,India,IN,IND,Uttar Pradesh,,1352000,1356145792
Hathras,Hathras,27.6,78.05,India,IN,IND,Uttar Pradesh,,126882,1356072192
Shahjahanpur,Shahjahanpur,27.8804,79.905,India,IN,IND,Uttar Pradesh,,320434,1356415488
Jabalpur,Jabalpur,23.1751,79.9551,India,IN,IND,Madhya Pradesh,,1285000,1356115456
Patiala,Patiala,30.3204,76.385,India,IN,IND,Punjab,,329224,1356458368
Nagpur,Nagpur,21.17,79.09,India,IN,IND,Mahārāshtra,,2454000,1356365696
Bulandshahr,Bulandshahr,28.4104,77.8484,India,IN,IND,Uttar Pradesh,,198612,1356067584
Nanded,Nanded,19.17,77.3,India,IN,IND,Mahārāshtra,,623708,1356722304
Hoshiarpur,Hoshiarpur,31.52,75.98,India,IN,IND,Punjab,,158142,1356141056
Aligarh,Aligarh,27.8922,78.0618,India,IN,IND,Uttar Pradesh,,805000,1356076416
Mirzapur,Mirzapur,25.1454,82.57,India,IN,IND,Uttar Pradesh,,245817,1356427904
Bikaner,Bikaner,28.0304,73.3299,India,IN,IND,Rājasthān,,576015,1356026624
Srinagar,Srinagar,34.1,74.815,India,IN,IND,Jammu and Kashmīr,admin,1140000,1356443008
Jhansi,Jhansi,25.453,78.5575,India,IN,IND,Uttar Pradesh,,826494,1356712704
Fatehpur,Fatehpur,25.8804,80.8,India,IN,IND,Uttar Pradesh,,166480,1356059136
Sagar,Sagar,23.8504,78.75,India,IN,IND,Madhya Pradesh,,328240,1356781824
Bahraich,Bahraich,27.6204,81.6699,India,IN,IND,Uttar Pradesh,,182218,1356833280
Kanpur,Kanpur,26.46,80.32,India,IN,IND,Uttar Pradesh,,3162000,1356575232
Gorakhpur,Gorakhpur,26.7504,83.38,India,IN,IND,Uttar Pradesh,,674246,1356190208
Jammu,Jammu,32.7118,74.8467,India,IN,IND,Jammu and Kashmīr,,791000,1356491776
Nizamabad,Nizamabad,18.6704,78.1,India,IN,IND,Andhra Pradesh,,388505,1356242176
Faizabad,Faizabad,26.7504,82.17,India,IN,IND,Uttar Pradesh,,153047,1356032896
Sopore,Sopore,34.3,74.4667,India,IN,IND,Jammu and Kashmīr,,63035,1356978048
Allahabad,Allahabad,25.455,81.84,India,IN,IND,Uttar Pradesh,,1201000,1356718336
Sambalpur,Sambalpur,21.4704,83.9701,India,IN,IND,Odisha,,310852,1356772352
Pathankot,Pathankot,32.2703,75.72,India,IN,IND,Punjab,,253987,1356878208
Bilaspur,Bilaspur,22.0904,82.16,India,IN,IND,Chhattīsgarh,,543454,1356820480
Indore,Indore,22.7151,75.865,India,IN,IND,Madhya Pradesh,,2026000,1356402816
Sitapur,Sitapur,27.63,80.75,India,IN,IND,Uttar Pradesh,,164435,1356838400
Malegaon,Malegaon,20.5604,74.525,India,IN,IND,Mahārāshtra,,690844,1356113536
Dhule,Dhule,20.9,74.77,India,IN,IND,Mahārāshtra,,479073,1356224640
Panipat,Panipat,29.4004,76.97,India,IN,IND,Haryāna,,292808,1356526720
Muzaffarnagar,Muzaffarnagar,29.485,77.695,India,IN,IND,Uttar Pradesh,,349706,1356592384
Ongole,Ongole,15.5604,80.05,India,IN,IND,Andhra Pradesh,,202860,1356385152
Jaipur,Jaipur,26.9211,75.81,India,IN,IND,Rājasthān,admin,2917000,1356293504
Moradabad,Moradabad,28.8418,78.7568,India,IN,IND,Uttar Pradesh,,787000,1356269312
Pali,Pali,25.7904,73.3299,India,IN,IND,Rājasthān,,210103,1356212224
Vijayawada,Vijayawada,16.52,80.63,India,IN,IND,Andhra Pradesh,,1137000,1356807552
Budaun,Budaun,28.03,79.09,India,IN,IND,Uttar Pradesh,,161555,1356639232
Bareilly,Bareilly,28.3454,79.42,India,IN,IND,Uttar Pradesh,,817000,1356698240
Aurangabad,Aurangabad,24.7704,84.38,India,IN,IND,Bihār,,95929,1356920448
Vizianagaram,Vizianagaram,18.1204,83.5,India,IN,IND,Andhra Pradesh,,179358,1356212736
Chirala,Chirala,15.8604,80.34,India,IN,IND,Andhra Pradesh,,253000,1356100352
Ajmer,Ajmer,26.45,74.64,India,IN,IND,Rājasthān,,589985,1356058240
Pilibhit,Pilibhit,28.64,79.81,India,IN,IND,Uttar Pradesh,,131008,1356146944
Hindupur,Hindupur,13.7804,77.49,India,IN,IND,Andhra Pradesh,,168312,1356805632
Mandya,Mandya,12.5704,76.92,India,IN,IND,Karnātaka,,285034,1356039168
Karimnagar,Karimnagar,18.4604,79.11,India,IN,IND,Andhra Pradesh,,288251,1356578944
Tumkur,Tumkur,13.33,77.1,India,IN,IND,Karnātaka,,399606,1356033664
Mysore,Mysore,12.31,76.66,India,IN,IND,Karnātaka,,887000,1356779264
Hubli,Hubli,15.36,75.125,India,IN,IND,Karnātaka,,890000,1356102400
Shimoga,Shimoga,13.9304,75.56,India,IN,IND,Karnātaka,,654055,1356016128
Chandrapur,Chandrapur,19.97,79.3,India,IN,IND,Mahārāshtra,,595118,1356592640
Bellary,Bellary,15.15,76.915,India,IN,IND,Karnātaka,,445388,1356209152
Davangere,Davangere,14.47,75.92,India,IN,IND,Karnātaka,,503564,1356445056
Amritsar,Amritsar,31.64,74.87,India,IN,IND,Punjab,,1212000,1356926464
Belgaum,Belgaum,15.865,74.505,India,IN,IND,Karnātaka,,608756,1356390528
Etawah,Etawah,26.7855,79.015,India,IN,IND,Uttar Pradesh,,257448,1356241280
Patna,Patna,25.625,85.13,India,IN,IND,Bihār,admin,2158000,1356821376
Purnia,Purnia,25.7854,87.48,India,IN,IND,Bihār,,198453,1356486528
Bhusawal,Bhusawal,21.02,75.83,India,IN,IND,Mahārāshtra,,183001,1356338816
Nandyal,Nandyal,15.5204,78.48,India,IN,IND,Andhra Pradesh,,188654,1356671872
Kurnool,Kurnool,15.83,78.03,India,IN,IND,Andhra Pradesh,,424920,1356058368
Kolar,Kolar,13.1337,78.1334,India,IN,IND,Karnātaka,,144625,1356953856
Nellore,Nellore,14.44,79.9899,India,IN,IND,Andhra Pradesh,,678004,1356280960
Tiruvannamalai,Tiruvannamalai,12.2604,79.1,India,IN,IND,Tamil Nādu ,,138243,1356561152
Kanchipuram,Kanchipuram,12.8337,79.7167,India,IN,IND,Tamil Nādu ,,155029,1356148992
Valparai,Valparai,10.3204,76.97,India,IN,IND,Tamil Nādu ,,114308,1356065536
Tiruppur,Tiruppur,11.0804,77.33,India,IN,IND,Tamil Nādu ,,650000,1356539776
Alappuzha,Alappuzha,9.5004,76.37,India,IN,IND,Kerala,,176783,1356293760
Kollam,Kollam,8.9004,76.57,India,IN,IND,Kerala,,394163,1356304128
Karur,Karur,10.9504,78.0833,India,IN,IND,Tamil Nādu ,,76915,1356837888
Kumbakonam,Kumbakonam,10.9805,79.4,India,IN,IND,Tamil Nādu ,,139264,1356172288
Thanjavur,Thanjavur,10.7704,79.15,India,IN,IND,Tamil Nādu ,,219571,1356599168
Nagercoil,Nagercoil,8.1804,77.43,India,IN,IND,Tamil Nādu ,,224329,1356051712
Tirunelveli,Tirunelveli,8.7304,77.69,India,IN,IND,Tamil Nādu ,,542200,1356037120
Rajapalaiyam,Rajapalaiyam,9.4204,77.58,India,IN,IND,Tamil Nādu ,,369991,1356110336
Salem,Salem,11.67,78.1801,India,IN,IND,Tamil Nādu ,,873000,1356567040
Tiruchirappalli,Tiruchirappalli,10.81,78.69,India,IN,IND,Tamil Nādu ,,951000,1356884480
Madurai,Madurai,9.92,78.12,India,IN,IND,Tamil Nādu ,,1294000,1356257280
Cuddalore,Cuddalore,11.7204,79.77,India,IN,IND,Tamil Nādu ,,158569,1356544000
Dindigul,Dindigul,10.38,78,India,IN,IND,Tamil Nādu ,,200797,1356106112
Namanga,Namanga,-2.5396,36.8,Kenya,KE,KEN,,,13193,1404000000
Nairobi,Nairobi,-1.2833,36.8167,Kenya,KE,KEN,Nairobi City,primary,3010000,1404000640
Moyale,Moyale,3.52,39.05,Kenya,KE,KEN,Marsabit,,24837,1404689664
Kisumu,Kisumu,-0.09,34.75,Kenya,KE,KEN,Kisumu,admin,395615,1404511872
Mombasa,Mombasa,-4.04,39.6899,Kenya,KE,KEN,Mombasa,admin,882000,1404512384
Nyeri,Nyeri,-0.417,36.951,Kenya,KE,KEN,Nyeri,admin,51084,1404924928
Garissa,Garissa,-0.4396,39.67,Kenya,KE,KEN,Garissa,admin,67861,1404464640
Kakamega,Kakamega,0.2904,34.73,Kenya,KE,KEN,Kakamega,admin,63426,1404614272
Nakuru,Nakuru,-0.28,36.07,Kenya,KE,KEN,Nakuru,admin,364727,1404140160
Witu,Witu,-2.3796,40.43,Kenya,KE,KEN,Lamu,,5380,1404037120
Embu,Embu,-0.5196,37.45,Kenya,KE,KEN,Embu,admin,58620,1404376448
Homa Bay,Homa Bay,-0.5273,34.4571,Kenya,KE,KEN,Homa Bay,admin,,1404321152
Isiolo,Isiolo,0.3546,37.5822,Kenya,KE,KEN,Isiolo,admin,,1404771200
Iten,Iten,0.6703,35.5081,Kenya,KE,KEN,Elgeyo/Marakwet,admin,,1404000128
Kabarnet,Kabarnet,0.4919,35.743,Kenya,KE,KEN,Baringo,admin,,1404620672
Kajiado,Kajiado,-1.8524,36.7768,Kenya,KE,KEN,Kajiado,admin,,1404265472
Kapenguria,Kapenguria,1.2389,35.1119,Kenya,KE,KEN,West Pokot,admin,,1404228096
Kapsabet,Kapsabet,0.2039,35.105,Kenya,KE,KEN,Nandi,admin,,1404814336
Kericho,Kericho,-0.3596,35.28,Kenya,KE,KEN,Kericho,admin,98852,1404338560
Kerugoya,Kerugoya,-0.4989,37.2803,Kenya,KE,KEN,Kirinyaga,admin,,1404597760
Kiambu,Kiambu,-1.1714,36.8356,Kenya,KE,KEN,Kiambu,admin,,1404390912
Kilifi,Kilifi,-3.6096,39.85,Kenya,KE,KEN,Kilifi,admin,80339,1404080128
Kisii,Kisii,-0.6696,34.76,Kenya,KE,KEN,Kisii,admin,28547,1404617600
Kitale,Kitale,1.0305,34.9899,Kenya,KE,KEN,Trans Nzoia,admin,150495,1404890112
Kitui,Kitui,-1.367,38.0106,Kenya,KE,KEN,Kitui,admin,,1404548352
Kwale,Kwale,-4.1737,39.4521,Kenya,KE,KEN,Kwale,admin,,1404769024
Lamu,Lamu,-2.262,40.9197,Kenya,KE,KEN,Lamu,admin,24525,1404163072
Lodwar,Lodwar,3.1304,35.57,Kenya,KE,KEN,Turkana,admin,20219,1404993536
Machakos,Machakos,-1.5095,37.26,Kenya,KE,KEN,Machakos,admin,144925,1404746752
Mandera,Mandera,3.9414,41.8625,Kenya,KE,KEN,Mandera,admin,,1404192768
Maralal,Maralal,1.1105,36.68,Kenya,KE,KEN,Samburu,admin,20841,1404895616
Marsabit,Marsabit,2.33,37.98,Kenya,KE,KEN,Marsabit,admin,16460,1404055296
Meru,Meru,0.06,37.64,Kenya,KE,KEN,Meru,admin,47226,1404588288
Migori,Migori,-1.0634,34.4731,Kenya,KE,KEN,Migori,admin,,1404478464
Murang’a,Murang'a,-0.721,37.1526,Kenya,KE,KEN,Murang’a,admin,,1404066688
Mwatate,Mwatate,-3.505,38.3772,Kenya,KE,KEN,Taita/Taveta,admin,,1404648064
Narok,Narok,-1.0808,35.8711,Kenya,KE,KEN,Narok,admin,,1404459776
Nyamira,Nyamira,-0.5633,34.9358,Kenya,KE,KEN,Nyamira,admin,,1404000128
Ol Kalou,Ol Kalou,-0.2643,36.3788,Kenya,KE,KEN,Nyandarua,admin,,1404930688
Rumuruti,Rumuruti,0.2725,36.5381,Kenya,KE,KEN,Laikipia,admin,,1404005248
Wajir,Wajir,1.7504,40.05,Kenya,KE,KEN,Wajir,admin,45771,1404067328
Wote,Wote,-1.7808,37.6288,Kenya,KE,KEN,Makueni,admin,,1404304512
Busia,Busia,0.4586,34.116,Kenya,KE,KEN,Busia,admin,,1404250752
Kathwana,Kathwana,-0.3314,37.8686,Kenya,KE,KEN,Tharaka-Nithi,admin,,1404000128
Sotik Post,Sotik Post,-0.7813,35.3416,Kenya,KE,KEN,Bomet,admin,,1404087680
Bungoma,Bungoma,0.5704,34.56,Kenya,KE,KEN,Bungoma,admin,55962,1404689792
Eldoret,Eldoret,0.52,35.27,Kenya,KE,KEN,Uasin Gishu,admin,353381,1404676352
Hola,Hola,-1.4993,40.0301,Kenya,KE,KEN,Tana River,admin,,1404396672
Karungu,Karungu,-0.8496,34.15,Kenya,KE,KEN,Migori,,2376,1404796416
Siaya,Siaya,0.0607,34.2881,Kenya,KE,KEN,Siaya,admin,,1404162560
Naivasha,Naivasha,-0.7096,36.43,Kenya,KE,KEN,Nakuru,,43983,1404904960
Thika,Thika,-1.0396,37.09,Kenya,KE,KEN,Kiambu,,99322,1404482688
Konza,Konza,-1.7496,37.12,Kenya,KE,KEN,Machakos,,2004,1404143232
Eldama Ravine,Eldama Ravine,0.0504,35.72,Kenya,KE,KEN,Baringo,,17581,1404468224
Tsavo,Tsavo,-2.9828,38.4666,Kenya,KE,KEN,Taita/Taveta,,414,1404321664
Voi,Voi,-3.3696,38.57,Kenya,KE,KEN,Taita/Taveta,,36487,1404504704
Nanyuki,Nanyuki,0.0204,37.06,Kenya,KE,KEN,Laikipia,,36142,1404482048
Malindi,Malindi,-3.21,40.1,Kenya,KE,KEN,Kilifi,,94016,1404380160
Kendu Bay,Kendu Bay,-0.3596,34.64,Kenya,KE,KEN,Homa Bay,,91248,1404600704
Mwingi,Mwingi,-0.9296,38.07,Kenya,KE,KEN,Kitui,,11219,1404312704
Sotik,Sotik,-0.6796,35.12,Kenya,KE,KEN,Bomet,,71285,1404807552
